{"version":1,"last_updated":"2022-07-24T19:30:49+02:00","centres_disponibles":[{"departement":"971","nom":"Pharmacie Port Caraïbes","url":"https://pharmacie-port-caraibe-saint-francois.pharmabest.com/animation-details/480d389d-f02d-4cfc-b242-9a108ef134d7/1/60","location":{"longitude":-61.269778,"latitude":16.252215,"city":"Saint-François, Guadeloupe","cp":"97118"},"metadata":{"address":"Avenue Kennedy, 97118 Saint-François, Guadeloupe","business_hours":null},"prochain_rdv":"2022-07-26T15:20:00","plateforme":"Valwin","type":"drugstore","appointment_count":23,"internal_id":"Valwinpharmabest84-port-caraibe-saint-francois","vaccine_type":["Pfizer-BioNTech","AstraZeneca"],"appointment_by_phone_only":false,"erreur":null,"last_scan_with_availabilities":null,"request_counts":null,"atlas_gid":null},{"departement":"971","nom":"Centre de vaccination du Centre Hospitalier Universitaire de la Guadeloupe","url":"https://vaccination-covid.keldoc.com/centre-hospitalier-universitaire/les-abymes-97139/centre-hospitalier-universitaire-guadeloupe/centre-de-vaccination-du-centre-hospitalier-universitaire-guadeloupe?cabinet=16690&specialty=144","location":{"longitude":-61.525373,"latitude":16.236694,"city":"Les Abymes","cp":"97139"},"metadata":{"address":"CHU de Guadeloupe, Route de Chauvel, 97139 Les Abymes","business_hours":null,"phone_number":"+33590891221"},"prochain_rdv":"2022-07-27T08:30:00+02:00","plateforme":"Keldoc","type":"vaccination-center","appointment_count":858,"internal_id":"keldoc2651pid16690","vaccine_type":[],"appointment_by_phone_only":false,"erreur":null,"last_scan_with_availabilities":null,"request_counts":null,"atlas_gid":null}],"centres_indisponibles":[{"departement":"971","nom":"Pharmacie Foucan","url":"https://pharmaciefoucan-lesabymes.epharmacie.pro","location":{"longitude":-61.522048,"latitude":16.253194,"city":"Les Abymes","cp":"97139"},"metadata":{"address":"Résidence les Aloés, bâtiment 7, 97139 Les Abymes","business_hours":null},"prochain_rdv":null,"plateforme":"Valwin","type":"drugstore","appointment_count":0,"internal_id":"Valwinsoguasphar14-foucan-abymes","vaccine_type":[],"appointment_by_phone_only":false,"erreur":null,"last_scan_with_availabilities":null,"request_counts":null,"atlas_gid":null},{"departement":"971","nom":"Pharmacie Du Golf - Saint Francois","url":"https://app.ordoclic.fr/app/pharmacie/pharmacie-du-golf---saint-francois-saint-francois","location":{"longitude":-61.2745504,"latitude":16.2546346,"city":"saint-francois","cp":"97118"},"metadata":{"address":"RUE DU GENERAL DE GAULLE, 97118 SAINT FRANCOIS","phone_number":"+590590887220","business_hours":null},"prochain_rdv":null,"plateforme":"Ordoclic","type":"drugstore","appointment_count":0,"internal_id":"ordoclic36c1a8f6","vaccine_type":[],"appointment_by_phone_only":false,"erreur":null,"last_scan_with_availabilities":null,"request_counts":null,"atlas_gid":null},{"departement":"971","nom":"Pharmacie du Centre","url":"https://pharmacie-centre-basse-terre.epharmacie.pro","location":{"longitude":-61.730548,"latitude":15.995231,"city":"Basse-Terre","cp":"97100"},"metadata":{"address":"5, rue Barbès et 19 cours Nolivos, 97100 Basse-Terre","business_hours":null},"prochain_rdv":null,"plateforme":"Valwin","type":"drugstore","appointment_count":0,"internal_id":"Valwinsoguasphar05-centre-basse-terre-guadeloupe","vaccine_type":[],"appointment_by_phone_only":false,"erreur":null,"last_scan_with_availabilities":null,"request_counts":null,"atlas_gid":null},{"departement":"971","nom":"Pharmacie Vila","url":"https://pharmacie-vila-guadeloupe.epharmacie.pro","location":{"longitude":-61.526299,"latitude":16.258906,"city":"Les Abymes","cp":"97139"},"metadata":{"address":" 4-6, avenue du Général de Gaulle - Le Raizet, 97139 Les Abymes","business_hours":null},"prochain_rdv":null,"plateforme":"Valwin","type":"drugstore","appointment_count":0,"internal_id":"Valwinsoguasphar09-vila-abymes","vaccine_type":[],"appointment_by_phone_only":false,"erreur":null,"last_scan_with_availabilities":null,"request_counts":null,"atlas_gid":null},{"departement":"971","nom":"PHARMACIE DE DESHAIES","url":"https://pharmaciededeshaies.epharmacie.pro","location":{"longitude":-61.79451,"latitude":16.30622,"city":"DESHAIES","cp":"97126"},"metadata":{"address":"152 Bd des Poissonniers, 97126 DESHAIES","business_hours":null},"prochain_rdv":null,"plateforme":"Valwin","type":"drugstore","appointment_count":0,"internal_id":"Valwinlpc01-deshaies","vaccine_type":[],"appointment_by_phone_only":false,"erreur":null,"last_scan_with_availabilities":null,"request_counts":null,"atlas_gid":null},{"departement":"971","nom":"Pharmacie Petit","url":"https://www.maiia.com/pharmacie/97190-le-gosier/pharmacie-petit?centerid=61bc6b74e7890a6a172c89be","location":{"longitude":-61.518324,"latitude":16.215792,"city":"Le Gosier","cp":"97190"},"metadata":{"address":"Bas du Fort - CC Cora 97190 Le Gosier","business_hours":{"Lundi":"09:00-20:00","Mardi":"09:00-20:00","Mercredi":"09:00-20:00","Jeudi":"09:00-20:00","Vendredi":"09:00-20:00","Samedi":"09:00-20:00"},"phone_number":"+33590908615"},"prochain_rdv":null,"plateforme":"Maiia","type":"drugstore","appointment_count":0,"internal_id":"maiia61bc6b74","vaccine_type":[],"appointment_by_phone_only":false,"erreur":null,"last_scan_with_availabilities":null,"request_counts":null,"atlas_gid":null},{"departement":"971","nom":"Pharmacie Du Centre","url":"https://app.ordoclic.fr/app/pharmacie/pharmacie-du-centre-le-gosier","location":{"longitude":-61.4765632,"latitude":16.2121248,"city":"le-gosier","cp":"97190"},"metadata":{"address":"CENTRE COMMERCIAL RIVIERA GRANDE RAVINE, 97190 LE GOSIER","phone_number":"+590590841060","business_hours":null},"prochain_rdv":null,"plateforme":"Ordoclic","type":"drugstore","appointment_count":0,"internal_id":"ordoclicab8015db","vaccine_type":[],"appointment_by_phone_only":false,"erreur":null,"last_scan_with_availabilities":null,"request_counts":null,"atlas_gid":null},{"departement":"971","nom":"Pharmacie Des Citée Unis","url":"https://app.ordoclic.fr/app/pharmacie/pharmacie-des-citee-unis-pointe-a-pitre","location":{"longitude":-61.53437109999999,"latitude":16.2410977,"city":"pointe-a-pitre-","cp":"97110"},"metadata":{"address":"Rue des citée unis , 97110 Pointe à pitre ","phone_number":"+590590837490","business_hours":null},"prochain_rdv":null,"plateforme":"Ordoclic","type":"drugstore","appointment_count":0,"internal_id":"ordoclicf906b29e","vaccine_type":[],"appointment_by_phone_only":false,"erreur":null,"last_scan_with_availabilities":null,"request_counts":null,"atlas_gid":null},{"departement":"971","nom":"Pharmacie Azar","url":"https://app.ordoclic.fr/app/pharmacie/pharmacie-azar-le-moule-1","location":{"longitude":-61.3432725,"latitude":16.3246788,"city":"le-moule-","cp":"97160"},"metadata":{"address":"Morne sergent , 97160 Le moule ","phone_number":"+590590232233","business_hours":null},"prochain_rdv":null,"plateforme":"Ordoclic","type":"drugstore","appointment_count":0,"internal_id":"ordoclic04fd6d66","vaccine_type":[],"appointment_by_phone_only":false,"erreur":null,"last_scan_with_availabilities":null,"request_counts":null,"atlas_gid":null},{"departement":"971","nom":"La Kage On The Beach Barnum","url":"https://app.ordoclic.fr/app/pharmacie/la-kage-on-the-beach-barnum-le-gosier","location":{"longitude":-61.495017,"latitude":16.2055373,"city":"le-gosier","cp":"97190"},"metadata":{"address":"Chemin de la Plage, 97190 Le Gosier","phone_number":"+33590832495","business_hours":null},"prochain_rdv":null,"plateforme":"Ordoclic","type":"drugstore","appointment_count":0,"internal_id":"ordoclic3f76ad9d","vaccine_type":[],"appointment_by_phone_only":false,"erreur":null,"last_scan_with_availabilities":null,"request_counts":null,"atlas_gid":null},{"departement":"971","nom":"Pharmacie Eboué","url":"https://pharmacie-eboue.epharmacie.pro","location":{"longitude":-61.59233,"latitude":16.193244,"city":"Petit bourg","cp":"97170"},"metadata":{"address":"Rue Félix Eboué, 97170 Petit bourg","business_hours":null},"prochain_rdv":null,"plateforme":"Valwin","type":"drugstore","appointment_count":0,"internal_id":"Valwinsoguasphar16-eboue-petit-bourg","vaccine_type":[],"appointment_by_phone_only":false,"erreur":null,"last_scan_with_availabilities":null,"request_counts":null,"atlas_gid":null},{"departement":"971","nom":"Pharmacie De La Marina","url":"https://app.ordoclic.fr/app/pharmacie/pharmacie-de-la-marina-pointe-a-pitre","location":{"longitude":-61.5298738,"latitude":16.2205233,"city":"pointe-a-pitre","cp":"97110"},"metadata":{"address":" lot n°7 CC LE MARINA, 97110 Pointe-à-Pitre","phone_number":"+590590464100","business_hours":null},"prochain_rdv":null,"plateforme":"Ordoclic","type":"drugstore","appointment_count":0,"internal_id":"ordoclice0a6919d","vaccine_type":[],"appointment_by_phone_only":false,"erreur":null,"last_scan_with_availabilities":null,"request_counts":null,"atlas_gid":null},{"departement":"971","nom":"Pharmacie Dorville","url":"https://pharmacie-dorville.fr","location":{"longitude":-61.74385,"latitude":16.012644,"city":"Baillif, Guadeloupe","cp":"97123"},"metadata":{"address":"Zone Artisanale des Pères Blancs, 97123 Baillif, Guadeloupe","business_hours":null},"prochain_rdv":null,"plateforme":"Valwin","type":"drugstore","appointment_count":0,"internal_id":"Valwinsoguasphar21-dorville-baillif","vaccine_type":[],"appointment_by_phone_only":false,"erreur":null,"last_scan_with_availabilities":null,"request_counts":null,"atlas_gid":null},{"departement":"971","nom":"Fitpark Bergevin","url":"https://app.ordoclic.fr/app/pharmacie/fitpark-bergevin-saint-francois","location":{"longitude":-61.27503479999999,"latitude":16.2575935,"city":"saint-francois","cp":"97118"},"metadata":{"address":"C Commercial Pradel Pradel, 97118 Saint-François","phone_number":"+33590884196","business_hours":null},"prochain_rdv":null,"plateforme":"Ordoclic","type":"drugstore","appointment_count":0,"internal_id":"ordoclice695e880","vaccine_type":[],"appointment_by_phone_only":false,"erreur":null,"last_scan_with_availabilities":null,"request_counts":null,"atlas_gid":null},{"departement":"971","nom":"Pharmacie Richeval","url":"https://app.ordoclic.fr/app/pharmacie/pharmacie-richeval--morne-a-l’eau","location":{"longitude":-61.45613900000001,"latitude":16.338778,"city":"morne-a-leau-","cp":"97111"},"metadata":{"address":"Lieu dit richeval , 97111 Morne à l’eau ","phone_number":"+590590248877","business_hours":null},"prochain_rdv":null,"plateforme":"Ordoclic","type":"drugstore","appointment_count":0,"internal_id":"ordoclic29246859","vaccine_type":[],"appointment_by_phone_only":false,"erreur":null,"last_scan_with_availabilities":null,"request_counts":null,"atlas_gid":null},{"departement":"971","nom":"Pharmacie de Trois Rivières","url":"https://pharmacie-de-trois-rivieres.com","location":{"longitude":-61.644507,"latitude":15.975999,"city":"Trois Rivières","cp":"97114"},"metadata":{"address":"Lieu dit Bourg - 13, rue Gerville Reache, 97114 Trois Rivières","business_hours":null},"prochain_rdv":null,"plateforme":"Valwin","type":"drugstore","appointment_count":0,"internal_id":"Valwinsoguasphar12-trois-rivieres","vaccine_type":[],"appointment_by_phone_only":false,"erreur":null,"last_scan_with_availabilities":null,"request_counts":null,"atlas_gid":null},{"departement":"971","nom":"Pharmacie Les Flamboyants","url":"https://app.ordoclic.fr/app/pharmacie/pharmacie-les-flamboyants-capesterre-belle-eau","location":{"longitude":-61.56433389999999,"latitude":16.0520114,"city":"capesterre-belle-eau","cp":"97130"},"metadata":{"address":"Centre Commercial Les Flamboyants, 97130 Capesterre-Belle-Eau","phone_number":"+590590860373","business_hours":null},"prochain_rdv":null,"plateforme":"Ordoclic","type":"drugstore","appointment_count":0,"internal_id":"ordoclic4778fac4","vaccine_type":[],"appointment_by_phone_only":false,"erreur":null,"last_scan_with_availabilities":null,"request_counts":null,"atlas_gid":null},{"departement":"971","nom":"Pharmacie Corvo","url":"https://app.ordoclic.fr/app/pharmacie/pharmacie-corvo-morne-a-l'eau","location":{"longitude":-61.4575699,"latitude":16.3342823,"city":"morne-a-leau","cp":"97111"},"metadata":{"address":"Rue du Débarcadère, 97111 Morne-à-l'Eau","phone_number":"+33059024407","business_hours":null},"prochain_rdv":null,"plateforme":"Ordoclic","type":"drugstore","appointment_count":0,"internal_id":"ordoclic3b69aab2","vaccine_type":[],"appointment_by_phone_only":false,"erreur":null,"last_scan_with_availabilities":null,"request_counts":null,"atlas_gid":null},{"departement":"971","nom":"Pharmacie De La Mairie","url":"https://app.ordoclic.fr/app/pharmacie/pharmacie-de-la-mairie--baie-mahault","location":{"longitude":-61.5874182,"latitude":16.2654689,"city":"baie-mahault","cp":"97122"},"metadata":{"address":"29 rue de la République, 97122 Baie MAHAULT","phone_number":"+33590261559","business_hours":null},"prochain_rdv":null,"plateforme":"Ordoclic","type":"drugstore","appointment_count":0,"internal_id":"ordoclic4dff3d4b","vaccine_type":[],"appointment_by_phone_only":false,"erreur":null,"last_scan_with_availabilities":null,"request_counts":null,"atlas_gid":null},{"departement":"971","nom":"Pharmacie Fleur de Canne","url":"https://www.pharmaciefleurdecanne.fr","location":{"longitude":-61.697003,"latitude":16.332309,"city":"Sainte-Rose","cp":"97115"},"metadata":{"address":"Place Tricolore, 97115 Sainte-Rose","business_hours":null},"prochain_rdv":null,"plateforme":"Valwin","type":"drugstore","appointment_count":0,"internal_id":"Valwinsoguasphar01-fleur-canne-sainte-rose","vaccine_type":[],"appointment_by_phone_only":false,"erreur":null,"last_scan_with_availabilities":null,"request_counts":null,"atlas_gid":null},{"departement":"971","nom":"Pharmacie Roussel","url":"https://app.ordoclic.fr/app/pharmacie/pharmacie-roussel-petit-bourg","location":{"longitude":-61.65130250000001,"latitude":16.1954425,"city":"petit-bourg","cp":"97170"},"metadata":{"address":"Centre médical de tabanon, 97170 Petit bourg","phone_number":"+33690511144","business_hours":null},"prochain_rdv":null,"plateforme":"Ordoclic","type":"drugstore","appointment_count":0,"internal_id":"ordoclic438bf433","vaccine_type":[],"appointment_by_phone_only":false,"erreur":null,"last_scan_with_availabilities":null,"request_counts":null,"atlas_gid":null},{"departement":"971","nom":"Pharmacie de Rigaud","url":"https://pharmacie-de-rigaud.fr","location":{"longitude":-61.46081206425305,"latitude":16.328768019864604,"city":"Morne-À-l'Eau","cp":"97111"},"metadata":{"address":"25, rue du Cimetière, 97111 Morne-À-l'Eau","business_hours":null},"prochain_rdv":null,"plateforme":"Valwin","type":"drugstore","appointment_count":0,"internal_id":"Valwinsoguasphar20-rigaud-morne-eau","vaccine_type":[],"appointment_by_phone_only":false,"erreur":null,"last_scan_with_availabilities":null,"request_counts":null,"atlas_gid":null},{"departement":"971","nom":"Pharmacie Combé","url":"https://pharmacie-combe-capesterre-belle-eau.epharmacie.pro","location":{"longitude":-61.566443,"latitude":16.040749,"city":"Capesterre Belle Eau","cp":"97130"},"metadata":{"address":"Allée dumanoir, 97130 Capesterre Belle Eau","business_hours":null},"prochain_rdv":null,"plateforme":"Valwin","type":"drugstore","appointment_count":0,"internal_id":"Valwinsoguasphar04-combe-caspesterre-belle-eau","vaccine_type":[],"appointment_by_phone_only":false,"erreur":null,"last_scan_with_availabilities":null,"request_counts":null,"atlas_gid":null},{"departement":"971","nom":"Pharmacie du Champ d'Arbaud","url":"https://pharmacie-du-champ-darbaud.epharmacie.pro","location":{"longitude":-61.726742,"latitude":15.993317,"city":"Basse-Terre","cp":"97100"},"metadata":{"address":"Angle du 10, boulevard Félix Eboué & 1, rue Dugommier, 97100 Basse-Terre","business_hours":null},"prochain_rdv":null,"plateforme":"Valwin","type":"drugstore","appointment_count":0,"internal_id":"Valwinsoguasphar22-champ-arbaud-basse-terre","vaccine_type":[],"appointment_by_phone_only":false,"erreur":null,"last_scan_with_availabilities":null,"request_counts":null,"atlas_gid":null},{"departement":"971","nom":"FREBAULT","url":"https://pharmaciefrebault.epharmacie.pro","location":{"longitude":-61.53612,"latitude":16.23781,"city":"Pointe à Pitre","cp":"97110"},"metadata":{"address":"48 rue Frébault, 97110 Pointe à Pitre","business_hours":null},"prochain_rdv":null,"plateforme":"Valwin","type":"drugstore","appointment_count":0,"internal_id":"Valwincapguadeloupe01-frebault-pointe-pitre","vaccine_type":[],"appointment_by_phone_only":false,"erreur":null,"last_scan_with_availabilities":null,"request_counts":null,"atlas_gid":null},{"departement":"971","nom":"Pharmacie Hibiscus","url":"https://app.ordoclic.fr/app/pharmacie/pharmacie-hibiscus-les-abymes","location":{"longitude":-61.5266249,"latitude":16.2579559,"city":"les-abymes","cp":"97139"},"metadata":{"address":"Rue des Hibiscus, 97139 Les Abymes","phone_number":"+33780917843","business_hours":null},"prochain_rdv":null,"plateforme":"Ordoclic","type":"drugstore","appointment_count":0,"internal_id":"ordoclica8a2f971","vaccine_type":[],"appointment_by_phone_only":false,"erreur":null,"last_scan_with_availabilities":null,"request_counts":null,"atlas_gid":null},{"departement":"971","nom":"Pharmacie Lacascade","url":"https://app.ordoclic.fr/app/pharmacie/pharmacie-lacascade-saint-rose","location":{"longitude":-61.69616800000001,"latitude":16.332003,"city":"saint-rose","cp":"97115"},"metadata":{"address":"Lotissement le boyer, 97115 Saint rose","phone_number":"+33590288937","business_hours":null},"prochain_rdv":null,"plateforme":"Ordoclic","type":"drugstore","appointment_count":0,"internal_id":"ordoclicf5beac4d","vaccine_type":[],"appointment_by_phone_only":false,"erreur":null,"last_scan_with_availabilities":null,"request_counts":null,"atlas_gid":null},{"departement":"971","nom":"Pharmacie Port Caraïbes","url":"https://app.ordoclic.fr/app/pharmacie/pharmacie-port-caraibes---saint-francois","location":{"longitude":-61.2702361,"latitude":16.2523613,"city":"saint-francois","cp":"97118"},"metadata":{"address":"avenue Kennedy, 97118 Saint-François","phone_number":"+590590915090","business_hours":null},"prochain_rdv":null,"plateforme":"Ordoclic","type":"drugstore","appointment_count":0,"internal_id":"ordoclicf6707e11","vaccine_type":[],"appointment_by_phone_only":false,"erreur":null,"last_scan_with_availabilities":null,"request_counts":null,"atlas_gid":null},{"departement":"971","nom":"Pharmacie des Isles","url":"https://pharmacie-des-isles.fr","location":{"longitude":-61.536799,"latitude":16.236634,"city":"Pointe-à-Pitre","cp":"97110"},"metadata":{"address":"21, rue Achille René Boisneuf, 97110 Pointe-à-Pitre","business_hours":null},"prochain_rdv":null,"plateforme":"Valwin","type":"drugstore","appointment_count":0,"internal_id":"Valwinsoguasphar02-isles-pointe-pitre","vaccine_type":[],"appointment_by_phone_only":false,"erreur":null,"last_scan_with_availabilities":null,"request_counts":null,"atlas_gid":null},{"departement":"971","nom":"Pharmacie Cap Santé","url":"https://app.ordoclic.fr/app/pharmacie/pharmacie-cap-sante-baie-mahault","location":{"longitude":-61.57083189999999,"latitude":16.240215,"city":"baie-mahault-","cp":"97122"},"metadata":{"address":"Imm mirabel Zone com de D’orville, 97122 Baie Mahault ","phone_number":"+590590900173","business_hours":null},"prochain_rdv":null,"plateforme":"Ordoclic","type":"drugstore","appointment_count":0,"internal_id":"ordoclic273b00b2","vaccine_type":[],"appointment_by_phone_only":false,"erreur":null,"last_scan_with_availabilities":null,"request_counts":null,"atlas_gid":null},{"departement":"971","nom":"Pharmacie de la Gabarre","url":"https://pharmaciedelagabarre.epharmacie.pro","location":{"longitude":-61.540873,"latitude":16.244445,"city":"Pointe-à-Pitre","cp":"97110"},"metadata":{"address":"Résidence Loïc Petit, Place des Dissidents, 97110 Pointe-à-Pitre","business_hours":null},"prochain_rdv":null,"plateforme":"Valwin","type":"drugstore","appointment_count":0,"internal_id":"Valwintripharmax02-gabarre-pointeapitre","vaccine_type":[],"appointment_by_phone_only":false,"erreur":null,"last_scan_with_availabilities":null,"request_counts":null,"atlas_gid":null},{"departement":"971","nom":"Pharmacie St Jean","url":"https://app.ordoclic.fr/app/pharmacie/pharmacie-st-jean-le-moule","location":{"longitude":-61.346522,"latitude":16.3317063,"city":"le-moule","cp":"97160"},"metadata":{"address":"70 Rue Saint Jean, 97160 Le Moule","phone_number":"+33590235001","business_hours":null},"prochain_rdv":null,"plateforme":"Ordoclic","type":"drugstore","appointment_count":0,"internal_id":"ordoclic48f2f79d","vaccine_type":[],"appointment_by_phone_only":false,"erreur":null,"last_scan_with_availabilities":null,"request_counts":null,"atlas_gid":null},{"departement":"971","nom":" Pharmacie du Semaphore","url":"https://pharmaciechapelain-baie-mahault.epharmacie.pro","location":{"longitude":-61.571498,"latitude":16.239006,"city":"Baie-Mahault","cp":"97122"},"metadata":{"address":"Zac de Houelbourg Sud II, 97122 Baie-Mahault","business_hours":null},"prochain_rdv":null,"plateforme":"Valwin","type":"drugstore","appointment_count":0,"internal_id":"Valwinsoguasphar18-chapelain-baie-mahault","vaccine_type":[],"appointment_by_phone_only":false,"erreur":null,"last_scan_with_availabilities":null,"request_counts":null,"atlas_gid":null},{"departement":"971","nom":"Pharmacie de l'hibiscus","url":"https://pharmacie-hibiscus.epharmacie.pro","location":{"longitude":-61.52747,"latitude":16.2524,"city":"Les Abymes, Guadeloupe","cp":"97139"},"metadata":{"address":"Résidence Hibiscus, 97139 Les Abymes, Guadeloupe","business_hours":null},"prochain_rdv":null,"plateforme":"Valwin","type":"drugstore","appointment_count":0,"internal_id":"Valwintripharmax01-hibiscus-abymes","vaccine_type":[],"appointment_by_phone_only":false,"erreur":null,"last_scan_with_availabilities":null,"request_counts":null,"atlas_gid":null},{"departement":"971","nom":"Pharmacie du Gosier","url":"https://pharmacie-du-gosier.epharmacie.pro","location":{"longitude":-61.489165,"latitude":16.205676,"city":"Le Gosier","cp":"97190"},"metadata":{"address":"Résidence Bel Ilet - 1, rue Pierre Langlois, 97190 Le Gosier","business_hours":null},"prochain_rdv":null,"plateforme":"Valwin","type":"drugstore","appointment_count":0,"internal_id":"Valwinsoguasphar15-gosier","vaccine_type":[],"appointment_by_phone_only":false,"erreur":null,"last_scan_with_availabilities":null,"request_counts":null,"atlas_gid":null},{"departement":"971","nom":"Pharmacie Périanin","url":"https://pharmacie-perianin-abymes.epharmacie.pro","location":{"longitude":-61.5132387,"latitude":16.2650008,"city":"Les Abymes, Guadeloupe","cp":"97139"},"metadata":{"address":"Centre commercial du carrefour, 97139 Les Abymes, Guadeloupe","business_hours":null},"prochain_rdv":null,"plateforme":"Valwin","type":"drugstore","appointment_count":0,"internal_id":"Valwinsoguasphar06-perianin-abymes","vaccine_type":[],"appointment_by_phone_only":false,"erreur":null,"last_scan_with_availabilities":null,"request_counts":null,"atlas_gid":null},{"departement":"971","nom":"Pharmacie De Belcourt","url":"https://app.ordoclic.fr/app/pharmacie/pharmacie-de-belcourt-baie-mahault-1","location":{"longitude":-61.59391309999999,"latitude":16.2584039,"city":"baie-mahault","cp":"97122"},"metadata":{"address":"Residence Jardins Belcourt à Lacroix, 97122 Baie-Mahault","phone_number":"+590590262224","business_hours":null},"prochain_rdv":null,"plateforme":"Ordoclic","type":"drugstore","appointment_count":0,"internal_id":"ordoclic4b5f4ef8","vaccine_type":[],"appointment_by_phone_only":false,"erreur":null,"last_scan_with_availabilities":null,"request_counts":null,"atlas_gid":null},{"departement":"971","nom":"Pharmacie de Port Louis","url":"https://pharmaciedeportlouis.epharmacie.pro","location":{"longitude":-61.5311024,"latitude":16.415658,"city":"Port-Louis, Guadeloupe","cp":"97117"},"metadata":{"address":"43, rue Gambetta - Le Bourg, 97117 Port-Louis, Guadeloupe","business_hours":null},"prochain_rdv":null,"plateforme":"Valwin","type":"drugstore","appointment_count":0,"internal_id":"Valwinsoguasphar10-port-louis-guadeloupe","vaccine_type":[],"appointment_by_phone_only":false,"erreur":null,"last_scan_with_availabilities":null,"request_counts":null,"atlas_gid":null},{"departement":"971","nom":"Pharmacie De La Gabarre","url":"https://app.ordoclic.fr/app/pharmacie/pharmacie-de-la-gabarre--pointe-a-pitre","location":{"longitude":-61.53550239999999,"latitude":16.2392333,"city":"pointe-a-pitre","cp":"97110"},"metadata":{"address":"Pointe-à-Pitre, 97110 Pointe-à-Pitre","phone_number":"+590590828227","business_hours":null},"prochain_rdv":null,"plateforme":"Ordoclic","type":"drugstore","appointment_count":0,"internal_id":"ordoclic75ba5a6e","vaccine_type":[],"appointment_by_phone_only":false,"erreur":null,"last_scan_with_availabilities":null,"request_counts":null,"atlas_gid":null},{"departement":"971","nom":"Pharmacie Girard Dugamin","url":"https://app.ordoclic.fr/app/pharmacie/pharmacie-girard-dugamin-lamentin","location":{"longitude":-61.634393,"latitude":16.271054,"city":"lamentin","cp":"97129"},"metadata":{"address":"Rue de la Republique, 97129 Lamentin","phone_number":"+590690533355","business_hours":null},"prochain_rdv":null,"plateforme":"Ordoclic","type":"drugstore","appointment_count":0,"internal_id":"ordoclicf342339d","vaccine_type":[],"appointment_by_phone_only":false,"erreur":null,"last_scan_with_availabilities":null,"request_counts":null,"atlas_gid":null},{"departement":"971","nom":"Pharmacie Merault","url":"https://app.ordoclic.fr/app/pharmacie/pharmacie-merault--les-abymes","location":{"longitude":-61.50319440000001,"latitude":16.2691865,"city":"les-abymes","cp":"97139"},"metadata":{"address":"401 residence morne flory, 97139 Les abymes","phone_number":"+33590825252","business_hours":null},"prochain_rdv":null,"plateforme":"Ordoclic","type":"drugstore","appointment_count":0,"internal_id":"ordoclic0e0947b2","vaccine_type":[],"appointment_by_phone_only":false,"erreur":null,"last_scan_with_availabilities":null,"request_counts":null,"atlas_gid":null},{"departement":"971","nom":"Pharmacie De La Licorne","url":"https://app.ordoclic.fr/app/pharmacie/pharmacie-de-la-licorne-saint-francois-1","location":{"longitude":-61.27503479999999,"latitude":16.2575935,"city":"saint-francois","cp":"97118"},"metadata":{"address":"Centre commercial Pradel, 97118 Saint-François","phone_number":"+59590884196","business_hours":null},"prochain_rdv":null,"plateforme":"Ordoclic","type":"drugstore","appointment_count":0,"internal_id":"ordoclicc684fb69","vaccine_type":[],"appointment_by_phone_only":false,"erreur":null,"last_scan_with_availabilities":null,"request_counts":null,"atlas_gid":null},{"departement":"971","nom":"Pharmacie Capet","url":"https://app.ordoclic.fr/app/pharmacie/pharmacie-capet-les-abymes","location":{"longitude":-61.515927,"latitude":16.267333,"city":"les-abymes","cp":"97139"},"metadata":{"address":"Zone Artisanale Dothemare, 97139 Les Abymes","phone_number":"+33590489744","business_hours":null},"prochain_rdv":null,"plateforme":"Ordoclic","type":"drugstore","appointment_count":0,"internal_id":"ordoclicaabc01a6","vaccine_type":[],"appointment_by_phone_only":false,"erreur":null,"last_scan_with_availabilities":null,"request_counts":null,"atlas_gid":null},{"departement":"971","nom":"Pharmacie Le Marquisat","url":"https://app.ordoclic.fr/app/pharmacie/pharmacie-le-marquisat-baie-mahault","location":{"longitude":-61.55812949999999,"latitude":16.2424882,"city":"baie-mahault","cp":"97122"},"metadata":{"address":"BD DU MARQUISAT DE HOUELBOURG, 97122 BAIE-MAHAULT","phone_number":"+33590267436","business_hours":null},"prochain_rdv":null,"plateforme":"Ordoclic","type":"drugstore","appointment_count":0,"internal_id":"ordoclic06826ce6","vaccine_type":[],"appointment_by_phone_only":false,"erreur":null,"last_scan_with_availabilities":null,"request_counts":null,"atlas_gid":null},{"departement":"971","nom":"Pharmacie Du Pélican","url":"https://app.ordoclic.fr/app/pharmacie/pharmacie-du-pelican--le-gosier","location":{"longitude":-61.4921265,"latitude":16.2059794,"city":"le-gosier","cp":"97190"},"metadata":{"address":"10 boulevard du général de gaulle, 97190 Le Gosier","phone_number":"+590590840365","business_hours":null},"prochain_rdv":null,"plateforme":"Ordoclic","type":"drugstore","appointment_count":0,"internal_id":"ordoclic175e1064","vaccine_type":[],"appointment_by_phone_only":false,"erreur":null,"last_scan_with_availabilities":null,"request_counts":null,"atlas_gid":null},{"departement":"971","nom":"Pharmacie De Gissac","url":"https://app.ordoclic.fr/app/pharmacie/pharmacie-de-gissac-sainte-anne","location":{"longitude":-61.3885909,"latitude":16.2731261,"city":"sainte-anne","cp":"97180"},"metadata":{"address":"Gissac, 97180 Sainte-Anne","phone_number":"+590590223150","business_hours":null},"prochain_rdv":null,"plateforme":"Ordoclic","type":"drugstore","appointment_count":0,"internal_id":"ordoclic10db777d","vaccine_type":[],"appointment_by_phone_only":false,"erreur":null,"last_scan_with_availabilities":null,"request_counts":null,"atlas_gid":null},{"departement":"971","nom":"Pharmacie Du Gosier","url":"https://app.ordoclic.fr/app/pharmacie/pharmacie-du-gosier-le-gosier","location":{"longitude":-61.4889492,"latitude":16.2061689,"city":"le-gosier","cp":"97190"},"metadata":{"address":"Rue Pierre Langlois, 97190 Le Gosier","phone_number":"+590590841009","business_hours":null},"prochain_rdv":null,"plateforme":"Ordoclic","type":"drugstore","appointment_count":0,"internal_id":"ordoclic0cc47e32","vaccine_type":[],"appointment_by_phone_only":false,"erreur":null,"last_scan_with_availabilities":null,"request_counts":null,"atlas_gid":null},{"departement":"971","nom":"Pharmacie De La Pointe Bacchus","url":"https://app.ordoclic.fr/app/pharmacie/pharmacie-de-la-pointe-bacchus-petit-bourg","location":{"longitude":-61.5919726,"latitude":16.193188,"city":"petit-bourg","cp":"97170"},"metadata":{"address":"RESIDENCE IGUANE 1, 97170 PETIT BOURG","phone_number":"+33590941515","business_hours":null},"prochain_rdv":null,"plateforme":"Ordoclic","type":"drugstore","appointment_count":0,"internal_id":"ordoclica77777ba","vaccine_type":[],"appointment_by_phone_only":false,"erreur":null,"last_scan_with_availabilities":null,"request_counts":null,"atlas_gid":null},{"departement":"971","nom":"Pharmacie Piquion Wyckmans","url":"https://app.ordoclic.fr/app/pharmacie/pharmacie-piquion-wyckmans-pointe-noire","location":{"longitude":-61.7896821,"latitude":16.2325206,"city":"pointe-noire","cp":"97116"},"metadata":{"address":"Rue de la Republique, 97116 Pointe-Noire","phone_number":"+33590980281","business_hours":null},"prochain_rdv":null,"plateforme":"Ordoclic","type":"drugstore","appointment_count":0,"internal_id":"ordoclic6a29aba2","vaccine_type":[],"appointment_by_phone_only":false,"erreur":null,"last_scan_with_availabilities":null,"request_counts":null,"atlas_gid":null},{"departement":"971","nom":"Pharmacie Lydia Marcin","url":"https://app.ordoclic.fr/app/pharmacie/pharmacie-lydia-marcin-les-abymes","location":{"longitude":-61.5052371,"latitude":16.271057,"city":"les-abymes","cp":"97139"},"metadata":{"address":"Rue Achille Renée bois neuf, 97139 Les Abymes","phone_number":"+33590208429","business_hours":null},"prochain_rdv":null,"plateforme":"Ordoclic","type":"drugstore","appointment_count":0,"internal_id":"ordoclic9906dbc3","vaccine_type":[],"appointment_by_phone_only":false,"erreur":null,"last_scan_with_availabilities":null,"request_counts":null,"atlas_gid":null},{"departement":"971","nom":"Fitpark Jarry","url":"https://app.ordoclic.fr/app/pharmacie/fitpark-jarry-saint-francois","location":{"longitude":-61.27503479999999,"latitude":16.2575935,"city":"saint-francois","cp":"97118"},"metadata":{"address":"C Commercial Pradel Pradel, 97118 Saint-François","phone_number":"+33590884196","business_hours":null},"prochain_rdv":null,"plateforme":"Ordoclic","type":"drugstore","appointment_count":0,"internal_id":"ordoclic99358818","vaccine_type":[],"appointment_by_phone_only":false,"erreur":null,"last_scan_with_availabilities":null,"request_counts":null,"atlas_gid":null},{"departement":"971","nom":"Pharmacie Mauréaux-Lamothe","url":"https://www.doctolib.fr/vaccination-covid-19/basse-terre/pharmacie-maureaux-lamothe-basse-terre?pid=practice-240497","location":{"longitude":-61.7309867716645,"latitude":15.9955565045707,"city":"Basse-Terre","cp":"97100"},"metadata":{"address":"Centre Commercial Desmarais, Guadeloupe, 97100 Basse-Terre","business_hours":{"lundi":"08:30-19:30","mardi":"08:30-19:30","mercredi":"08:30-19:30","jeudi":"08:30-19:30","vendredi":"08:30-19:30","samedi":"08:30-19:30","dimanche":null},"phone_number":"+590590811442"},"prochain_rdv":null,"plateforme":"Doctolib","type":"drugstore","appointment_count":0,"internal_id":"doctolib377816pid240497","vaccine_type":[],"appointment_by_phone_only":false,"erreur":null,"last_scan_with_availabilities":null,"request_counts":null,"atlas_gid":null},{"departement":"971","nom":"Centre de vaccination anti-Covid du CHBT","url":"https://www.doctolib.fr/vaccination-covid-19/basse-terre/centre-de-vaccination-anti-covid-du-chbt?pid=practice-166145","location":{"longitude":-61.7215672,"latitude":15.999229,"city":"Basse-Terre","cp":"97109"},"metadata":{"address":"97109 Avenue Gaston Feuillard, 97100 Basse-Terre","business_hours":{"lundi":"09:00-12:30, 13:30-16:30","mardi":"09:00-12:30, 13:30-16:30","mercredi":"09:00-12:30, 13:30-16:30","jeudi":"09:00-12:30, 13:30-16:30","vendredi":"09:00-12:30, 13:30-16:30","samedi":null,"dimanche":null},"phone_number":"+33590991474"},"prochain_rdv":null,"plateforme":"Doctolib","type":"vaccination-center","appointment_count":0,"internal_id":"doctolib244525pid166145","vaccine_type":[],"appointment_by_phone_only":false,"erreur":null,"last_scan_with_availabilities":null,"request_counts":null,"atlas_gid":150},{"departement":"971","nom":"Clinique les eaux claires","url":"https://www.doctolib.fr/vaccination-covid-19/baie-mahault/centre-de-vaccination-clinique-des-eaux-claires-clinique-de-l-esperance?pid=practice-192838","location":{"longitude":-61.5808637,"latitude":16.242821,"city":"Baie-Mahault","cp":"97122"},"metadata":{"address":"Moudong Sud, 97122 Baie-Mahault","business_hours":{"lundi":"07:00-19:00","mardi":"07:00-19:00","mercredi":"07:00-19:00","jeudi":"07:00-19:00","vendredi":"07:00-19:00","samedi":"07:00-19:00","dimanche":"07:00-19:00"},"phone_number":"+33590976262"},"prochain_rdv":null,"plateforme":"Doctolib","type":"vaccination-center","appointment_count":0,"internal_id":"doctolib276639pid192838","vaccine_type":[],"appointment_by_phone_only":false,"erreur":null,"last_scan_with_availabilities":null,"request_counts":null,"atlas_gid":null},{"departement":"971","nom":"Centre de vaccination Covid-19 - Le Moule","url":"https://www.doctolib.fr/vaccination-covid-19/le-moule/centre-de-vaccination-covid-19-mairie-de-la-ville-du-moule-le-moule?pid=practice-201072","location":{"longitude":-61.3478586,"latitude":16.3340118,"city":"Le Moule","cp":"97160"},"metadata":{"address":"Rue François Serdot, 97160 Le Moule","business_hours":{"lundi":"09:00-13:00","mardi":"09:00-13:00","mercredi":"09:00-13:00","jeudi":"09:00-13:00","vendredi":"09:00-13:00","samedi":null,"dimanche":null},"phone_number":"+33800009110"},"prochain_rdv":null,"plateforme":"Doctolib","type":"vaccination-center","appointment_count":0,"internal_id":"doctolib269985pid201072","vaccine_type":[],"appointment_by_phone_only":false,"erreur":null,"last_scan_with_availabilities":null,"request_counts":null,"atlas_gid":1583},{"departement":"971","nom":"Centre de vaccination Covid-19 - Basse-Terre","url":"https://www.doctolib.fr/vaccination-covid-19/pointe-noire/centre-de-vaccination-covid-19-basse-terre?pid=practice-169341","location":{"longitude":-61.7126347,"latitude":15.9879205,"city":"Basse-Terre","cp":"97100"},"metadata":{"address":"Rue de la Mulatresse Solitude, 97100 Basse-Terre","business_hours":{"lundi":"08:00-13:00","mardi":"08:00-13:00","mercredi":"08:00-13:00","jeudi":"08:00-13:00","vendredi":"08:00-13:00","samedi":null,"dimanche":null},"phone_number":"+33590804239"},"prochain_rdv":null,"plateforme":"Doctolib","type":"vaccination-center","appointment_count":0,"internal_id":"doctolib248675pid169341","vaccine_type":[],"appointment_by_phone_only":false,"erreur":null,"last_scan_with_availabilities":null,"request_counts":null,"atlas_gid":null},{"departement":"971","nom":"Centre de Vaccination COVID - De Deshaies Guadeloupe","url":"https://www.doctolib.fr/vaccination-covid-19/deshaies-guadeloupe/centre-de-vaccination-covid-de-deshaies?pid=practice-166448","location":{"longitude":-61.7901744704281,"latitude":16.3122309005203,"city":"Deshaies","cp":"97126"},"metadata":{"address":"Contre-Allée Nationale 2, 97126 Deshaies","business_hours":{"lundi":"14:00-18:00","mardi":"14:00-18:00","mercredi":"14:00-18:00","jeudi":"14:00-18:00","vendredi":"14:00-18:00","samedi":null,"dimanche":null},"phone_number":"+590690482344"},"prochain_rdv":null,"plateforme":"Doctolib","type":"vaccination-center","appointment_count":0,"internal_id":"doctolib244848pid166448","vaccine_type":[],"appointment_by_phone_only":false,"erreur":null,"last_scan_with_availabilities":null,"request_counts":null,"atlas_gid":1376},{"departement":"971","nom":"Centre de vaccination Covid-19 - CHU de la Guadeloupe - Pôle parents-enfants","url":"https://www.doctolib.fr/vaccination-covid-19/les-abymes/centre-de-vaccination-covid-19-chu-de-la-guadeloupe-pole-parents-enfants?pid=practice-237905","location":{"longitude":-61.4948434,"latitude":16.2852126,"city":"Les Abymes","cp":"97139"},"metadata":{"address":"Route du Palais Royal Les Abymes Guadeloupe, 97139 Les Abymes","business_hours":{"lundi":"08:00-15:00","mardi":"08:00-15:00","mercredi":"08:00-15:00","jeudi":"08:00-15:00","vendredi":"08:00-15:00","samedi":null,"dimanche":null},"phone_number":"+590590891490"},"prochain_rdv":null,"plateforme":"Doctolib","type":"vaccination-center","appointment_count":0,"internal_id":"doctolib368055pid237905","vaccine_type":[],"appointment_by_phone_only":false,"erreur":null,"last_scan_with_availabilities":null,"request_counts":null,"atlas_gid":3264}]}